     2.10           OBSERVATION DATA    M (MIXED)           RINEX VERSION / TYPE
RTKCONV 2.4.2                           20200226 174103 UTC PGM / RUN BY / DATE 
log: C:\Users\Юлия\Documents\GitHub\glnephexercise\logs\BI  COMMENT             
format: NVS BINR                                            COMMENT             
                                                            MARKER NAME         
                                                            MARKER NUMBER       
                                                            OBSERVER / AGENCY   
                                                            REC # / TYPE / VERS 
                                                            ANT # / TYPE        
  2846208.0587  2200056.7661  5249419.6094                  APPROX POSITION XYZ 
        0.0000        0.0000        0.0000                  ANTENNA: DELTA H/E/N
     1     1                                                WAVELENGTH FACT L1/2
     4    C1    L1    D1    S1                              # / TYPES OF OBSERV 
  2020     2    10    13    37   47.0000000     GPS         TIME OF FIRST OBS   
  2020     2    10    13    40   37.0000000     GPS         TIME OF LAST OBS    
                                                            END OF HEADER       
 20  2 10 13 37 47.0000000  0  1R21
 -47564044.900    36355173.162       -3535.419          49.000  
 20  2 10 13 37 48.0000000  0  1R21
 -47563384.281    36358708.614       -3535.949          49.000  
 20  2 10 13 37 49.0000000  0  1R21
 -47562723.765    36362244.556       -3536.205          48.000  
 20  2 10 13 37 50.0000000  0  1R21
 -47562062.957    36365781.085       -3536.573          49.000  
 20  2 10 13 37 51.0000000  0  1R21
 -47561401.932    36369318.163       -3537.044          49.000  
 20  2 10 13 37 52.0000000  0  1R21
 -47560741.052    36372855.792       -3537.812          48.000  
 20  2 10 13 37 53.0000000  0  1R21
 -47560079.592    36376393.914       -3538.549          49.000  
 20  2 10 13 37 54.0000000  0  1R21
 -47559417.985    36379932.523       -3538.884          49.000  
 20  2 10 13 37 56.0000000  0  1R21
 -47558095.717    36387011.434       -3539.777          48.000  
 20  2 10 13 37 57.0000000  0  1R21
 -47557434.402    36390551.720       -3540.492          48.000  
 20  2 10 13 37 58.0000000  0  1R21
 -47556772.432    36394092.516       -3541.276          48.000  
 20  2 10 13 37 59.0000000  0  1R21
 -47556110.608    36397633.811       -3541.653          48.000  
 20  2 10 13 38  0.0000000  0  1R21
 -47555449.147    36401175.629       -3542.058          48.000  
 20  2 10 13 38  1.0000000  0  1R21
 -47554787.178    36404717.972       -3542.535          48.000  
 20  2 10 13 38  2.0000000  0  1R21
 -47554125.049    36408260.881       -3543.001          48.000  
 20  2 10 13 38  3.0000000  0  1R21
 -47553463.080    36411804.343       -3543.644          48.000  
 20  2 10 13 38  4.0000000  0  1R21
 -47552801.183    36415348.341       -3544.270          48.000  
 20  2 10 13 38  5.0000000  0  1R21
 -47552138.197    36418892.835       -3544.847          48.000  
 20  2 10 13 38  6.0000000  0  1R21
 -47551475.647    36422437.822       -3545.260          48.000  
 20  2 10 13 38  7.0000000  0  1R21
 -47550812.573    36425983.385       -3545.680          48.000  
 20  2 10 13 38  8.0000000  0  1R21
 -47550149.790    36429529.504       -3546.313          48.000  
 20  2 10 13 38  9.0000000  0  1R21
 -47549486.906    36433076.139       -3547.027          48.000  
 20  2 10 13 38 10.0000000  0  1R21
 -47548823.818    36436623.256       -3547.371          48.000  
 20  2 10 13 38 11.0000000  0  1R21
 -47548160.803    36440170.909       -3547.829          49.000  
 20  2 10 13 38 12.0000000  0  1R21
 -47547498.180    36443719.105       -3548.289          49.000  
 20  2 10 13 38 13.0000000  0  1R21
 -47546835.339    36447267.835       -3548.831          49.000  
 20  2 10 13 38 14.0000000  0  1R21
 -47546172.062    36450817.133       -3549.577          49.000  
 20  2 10 13 38 15.0000000  0  1R21
 -47545508.786    36454366.929       -3550.083          48.000  
 20  2 10 13 38 16.0000000  0  1R21
 -47544845.436    36457917.201       -3550.262          48.000  
 20  2 10 13 38 17.0000000  0  1R21
 -47544182.160    36461468.055       -3551.438          48.000  
 20  2 10 13 38 18.0000000  0  1R21
 -47543518.229    36465019.423       -3551.594          48.000  
 20  2 10 13 38 19.0000000  0  1R21
 -47542854.372    36468571.367       -3552.388          48.000  
 20  2 10 13 38 20.0000000  0  1R21
 -47542190.369    36472123.830       -3553.066          48.000  
 20  2 10 13 38 21.0000000  0  1R21
 -47541526.584    36475676.755       -3553.406          48.000  
 20  2 10 13 38 22.0000000  0  1R21
 -47540862.871    36479230.214       -3553.763          48.000  
 20  2 10 13 38 23.0000000  0  1R21
 -47540198.578    36482784.203       -3554.069          48.000  
 20  2 10 13 38 24.0000000  0  1R21
 -47539533.994    36486338.765       -3554.893          48.000  
 20  2 10 13 38 25.0000000  0  1R21
 -47538869.700    36489893.812       -3554.693          48.000  
 20  2 10 13 38 26.0000000  0  1R21
 -47538205.261    36493449.414       -3554.678          48.000  
 20  2 10 13 38 27.0000000  0  1R21
 -47537540.968    36497005.744       -3558.184          48.000  
 20  2 10 13 38 28.0000000  0  1R21
 -47536876.710    36500562.280       -3559.016          48.000  
 20  2 10 13 38 29.0000000  0  1R21
 -47536211.872    36504119.252       -3557.337          48.000  
 20  2 10 13 38 30.0000000  0  1R21
 -47535546.925    36507677.006       -3556.314          47.000  
 20  2 10 13 38 31.0000000  0  1R21
 -47534881.905    36511235.405       -3557.905          48.000  
 20  2 10 13 38 32.0000000  0  1R21
 -47534216.740    36514794.215       -3559.824          48.000  
 20  2 10 13 38 33.0000000  0  1R21
 -47533551.648    36518353.405       -3560.549          48.000  
 20  2 10 13 38 34.0000000  0  1R21
 -47532886.628    36521913.084       -3559.983          47.000  
 20  2 10 13 38 35.0000000  0  1R21
 -47532221.681    36525473.426       -3559.655          47.000  
 20  2 10 13 38 36.0000000  0  1R21
 -47531556.080    36529034.373       -3560.349          47.000  
 20  2 10 13 38 37.0000000  0  1R21
 -47530890.334    36532595.785       -3561.565          47.000  
 20  2 10 13 38 38.0000000  0  1R21
 -47530225.604    36536157.694       -3562.895          47.000  
 20  2 10 13 38 39.0000000  0  1R21
 -47529559.749    36539720.078       -3563.226          47.000  
 20  2 10 13 38 40.0000000  0  1R21
 -47528893.604    36543282.991       -3562.938          47.000  
 20  2 10 13 38 41.0000000  0  1R21
 -47528227.422    36546846.515       -3563.110          47.000  
 20  2 10 13 38 42.0000000  0  1R21
 -47527561.821    36550410.582       -3564.127          47.000  
 20  2 10 13 38 43.0000000  0  1R21
 -47526896.162    36553975.147       -3565.239          47.000  
 20  2 10 13 38 44.0000000  0  1R21
 -47526229.617    36557540.198       -3566.030          47.000  
 20  2 10 13 38 45.0000000  0  1R21
 -47525563.616    36561105.703       -3566.246          46.000  
 20  2 10 13 38 46.0000000  0  1R21
 -47524897.035    36564671.800       -3565.529          46.000  
 20  2 10 13 38 47.0000000  0  1R21
 -47524229.945    36568238.488       -3566.316          47.000  
 20  2 10 13 38 48.0000000  0  1R21
 -47523563.146    36571805.685       -3568.153          47.000  
 20  2 10 13 38 49.0000000  0  1R21
 -47522896.165    36575373.286       -3568.936          47.000  
 20  2 10 13 38 50.0000000  0  1R21
 -47522229.184    36578941.410       -3568.078          47.000  
 20  2 10 13 38 51.0000000  0  1R21
 -47521561.840    36582510.149       -3568.366          47.000  
 20  2 10 13 38 52.0000000  0  1R21
 -47520894.641    36586079.424       -3569.209          48.000  
 20  2 10 13 38 53.0000000  0  1R21
 -47520227.661    36589649.238       -3570.367          47.000  
 20  2 10 13 38 54.0000000  0  1R21
 -47519560.389    36593219.524       -3570.803          47.000  
 20  2 10 13 38 55.0000000  0  1R21
 -47518893.154    36596790.331       -3571.066          47.000  
 20  2 10 13 38 56.0000000  0  1R21
 -47518227.154    36600361.674       -3571.364          47.000  
 20  2 10 13 38 57.0000000  0  1R21
 -47517559.083    36603933.552       -3571.905          47.000  
 20  2 10 13 38 58.0000000  0  1R21
 -47516891.449    36607505.947       -3572.714          47.000  
 20  2 10 13 38 59.0000000  0  1R21
 -47516224.032    36611078.845       -3573.212          47.000  
 20  2 10 13 39  0.0000000  0  1R21
 -47515556.180    36614652.290       -3573.903          47.000  
 20  2 10 13 39  1.0000000  0  1R21
 -47514888.436    36618226.241       -3574.553          47.000  
 20  2 10 13 39  2.0000000  0  1R21
 -47514220.693    36621800.683       -3574.727          47.000  
 20  2 10 13 39  3.0000000  0  1R21
 -47513553.203    36625375.674       -3575.045          47.000  
 20  2 10 13 39  4.0000000  0  1R21
 -47512884.734    36628951.198       -3575.528          46.000  
 20  2 10 13 39  5.0000000  0  1R21
 -47512216.409    36632527.278       -3576.333          46.000  
 20  2 10 13 39  6.0000000  0  1R21
 -47511548.484    36636103.867       -3576.913          46.000  
 20  2 10 13 39  7.0000000  0  1R21
 -47510879.179    36639680.931       -3577.495          46.000  
 20  2 10 13 39  8.0000000  0  1R21
 -47510210.855    36643258.518       -3578.009          47.000  
 20  2 10 13 39  9.0000000  0  1R21
 -47509542.893    36646836.638       -3578.411          46.000  
 20  2 10 13 39 10.0000000  0  1R21
 -47508873.479    36650415.319       -3579.087          46.000  
 20  2 10 13 39 11.0000000  0  1R21
 -47508205.372    36653994.461       -3579.430          46.000  
 20  2 10 13 39 12.0000000  0  1R21
 -47507535.596    36657574.181       -3579.594          47.000  
 20  2 10 13 39 13.0000000  0  1R21
 -47506866.326    36661154.421       -3580.680          46.000  
 20  2 10 13 39 14.0000000  0  1R21
 -47506197.094    36664735.122       -3581.564          46.000  
 20  2 10 13 39 15.0000000  0  1R21
 -47505527.789    36668316.333       -3581.781          47.000  
 20  2 10 13 39 16.0000000  0  1R21
 -47504858.338    36671898.073       -3581.708          47.000  
 20  2 10 13 39 17.0000000  0  1R21
 -47504188.417    36675480.354       -3582.036          47.000  
 20  2 10 13 39 18.0000000  0  1R21
 -47503519.911    36679063.174       -3582.663          47.000  
 20  2 10 13 39 19.0000000  0  1R21
 -47502850.496    36682646.523       -3583.604          47.000  
 20  2 10 13 39 20.0000000  0  1R21
 -47502180.029    36686230.424       -3584.604          47.000  
 20  2 10 13 39 21.0000000  0  1R21
 -47501510.433    36689814.711       -3584.521          47.000  
 20  2 10 13 39 22.0000000  0  1R21
 -47500839.312    36693399.614       -3585.546          47.000  
 20  2 10 13 39 23.0000000  0  1R21
 -47500170.007    36696984.997       -3585.738          47.000  
 20  2 10 13 39 24.0000000  0  1R21
 -47499499.758    36700570.902       -3585.668          47.000  
 20  2 10 13 39 25.0000000  0  1R21
 -47498829.546    36704157.362       -3586.463          47.000  
 20  2 10 13 39 26.0000000  0  1R21
 -47498158.969    36707744.314       -3587.502          47.000  
 20  2 10 13 39 27.0000000  0  1R21
 -47497488.574    36711331.756       -3587.860          47.000  
 20  2 10 13 39 28.0000000  0  1R21
 -47496817.345    36714919.743       -3587.874          47.000  
 20  2 10 13 39 29.0000000  0  1R21
 -47496146.588    36718508.288       -3588.371          48.000  
 20  2 10 13 39 30.0000000  0  1R21
 -47495476.446    36722097.361       -3589.712          48.000  
 20  2 10 13 39 31.0000000  0  1R21
 -47494806.778    36725686.875       -3590.075          47.000  
 20  2 10 13 39 32.0000000  0  1R21
 -47494137.002    36729276.890       -3590.337          47.000  
 20  2 10 13 39 33.0000000  0  1R21
 -47493464.864    36732867.446       -3590.491          47.000  
 20  2 10 13 39 34.0000000  0  1R21
 -47492793.488    36736458.563       -3591.112          47.000  
 20  2 10 13 39 35.0000000  0  1R21
 -47492122.948    36740050.214       -3591.921          47.000  
 20  2 10 13 39 36.0000000  0  1R21
 -47491451.610    36743642.347       -3592.508          47.000  
 20  2 10 13 39 37.0000000  0  1R21
 -47490779.582    36747234.960       -3593.111          47.000  
 20  2 10 13 39 38.0000000  0  1R21
 -47490107.880    36750828.102       -3593.430          47.000  
 20  2 10 13 39 39.0000000  0  1R21
 -47489436.577    36754421.806       -3593.685          47.000  
 20  2 10 13 39 40.0000000  0  1R21
 -47488764.875    36758016.039       -3594.097          47.000  
 20  2 10 13 39 41.0000000  0  1R21
 -47488093.245    36761610.754       -3594.946          47.000  
 20  2 10 13 39 42.0000000  0  1R21
 -47487422.125    36765205.969       -3595.721          47.000  
 20  2 10 13 39 43.0000000  0  1R21
 -47486749.879    36768801.684       -3596.244          47.000  
 20  2 10 13 39 44.0000000  0  1R21
 -47486077.704    36772397.893       -3596.380          47.000  
 20  2 10 13 39 45.0000000  0  1R21
 -47485405.531    36775994.689       -3596.427          47.000  
 20  2 10 13 39 46.0000000  0  1R21
 -47484732.595    36779592.038       -3597.335          47.000  
 20  2 10 13 39 47.0000000  0  1R21
 -47484060.201    36783189.854       -3598.167          47.000  
 20  2 10 13 39 48.0000000  0  1R21
 -47483388.136    36786788.143       -3599.011          47.000  
 20  2 10 13 39 49.0000000  0  1R21
 -47482715.165    36790386.930       -3599.068          47.000  
 20  2 10 13 39 50.0000000  0  1R21
 -47482042.519    36793986.280       -3599.433          47.000  
 20  2 10 13 39 51.0000000  0  1R21
 -47481369.655    36797586.132       -3599.833          47.000  
 20  2 10 13 39 52.0000000  0  1R21
 -47480696.753    36801186.502       -3600.845          47.000  
 20  2 10 13 39 53.0000000  0  1R21
 -47480024.217    36804787.383       -3601.426          47.000  
 20  2 10 13 39 54.0000000  0  1R21
 -47479350.627    36808388.813       -3601.729          48.000  
 20  2 10 13 39 55.0000000  0  1R21
 -47478677.652    36811990.726       -3601.914          48.000  
 20  2 10 13 39 56.0000000  0  1R21
 -47478004.681    36815593.153       -3602.424          48.000  
 20  2 10 13 39 57.0000000  0  1R21
 -47477331.963    36819196.093       -3602.999          48.000  
 20  2 10 13 39 58.0000000  0  1R21
 -47476658.590    36822799.584       -3603.953          47.000  
 20  2 10 13 39 59.0000000  0  1R21
 -47475985.436    36826403.539       -3604.444          47.000  
 20  2 10 13 40  0.0000000  0  1R21
 -47475310.790    36830007.988       -3604.729          48.000  
 20  2 10 13 40  1.0000000  0  1R21
 -47474636.803    36833612.917       -3604.680          47.000  
 20  2 10 13 40  2.0000000  0  1R21
 -47473963.246    36837218.369       -3604.620          47.000  
 20  2 10 13 40  3.0000000  0  1R21
 -47473289.985    36840824.422       -3605.427          47.000  
 20  2 10 13 40  4.0000000  0  1R21
 -47472615.741    36844431.069       -3607.169          47.000  
 20  2 10 13 40  5.0000000  0  1R21
 -47471941.352    36848038.115       -3608.331          48.000  
 20  2 10 13 40  6.0000000  0  1R21
 -47471267.471    36851645.574       -3608.295          48.000  
 20  2 10 13 40  7.0000000  0  1R21
 -47470592.791    36855253.610       -3607.860          48.000  
 20  2 10 13 40  8.0000000  0  1R21
 -47469917.821    36858862.184       -3607.986          48.000  
 20  2 10 13 40  9.0000000  0  1R21
 -47469244.337    36862471.329       -3608.879          48.000  
 20  2 10 13 40 10.0000000  0  1R21
 -47468569.914    36866080.984       -3610.244          48.000  
 20  2 10 13 40 11.0000000  0  1R21
 -47467895.743    36869691.069       -3611.276          48.000  
 20  2 10 13 40 12.0000000  0  1R21
 -47467221.024    36873301.608       -3611.070          48.000  
 20  2 10 13 40 13.0000000  0  1R21
 -47466546.926    36876912.694       -3610.855          48.000  
 20  2 10 13 40 14.0000000  0  1R21
 -47465872.212    36880524.396       -3611.407          48.000  
 20  2 10 13 40 15.0000000  0  1R21
 -47465196.370    36884136.647       -3612.453          48.000  
 20  2 10 13 40 16.0000000  0  1R21
 -47464521.037    36887749.331       -3613.392          48.000  
 20  2 10 13 40 17.0000000  0  1R21
 -47463845.340    36891362.429       -3613.782          48.000  
 20  2 10 13 40 18.0000000  0  1R21
 -47463170.515    36894976.064       -3613.909          48.000  
 20  2 10 13 40 19.0000000  0  1R21
 -47462495.254    36898590.274       -3614.120          48.000  
 20  2 10 13 40 20.0000000  0  1R21
 -47461820.211    36902205.061       -3614.987          48.000  
 20  2 10 13 40 21.0000000  0  1R21
 -47461144.660    36905820.262       -3615.188          48.000  
 20  2 10 13 40 22.0000000  0  1R21
 -47460468.963    36909435.993       -3616.188          48.000  
 20  2 10 13 40 23.0000000  0  1R21
 -47459792.976    36913052.201       -3616.602          47.000  
 20  2 10 13 40 24.0000000  0  1R21
 -47459117.861    36916668.934       -3616.885          47.000  
 20  2 10 13 40 25.0000000  0  1R21
 -47458441.510    36920286.213       -3617.469          47.000  
 20  2 10 13 40 26.0000000  0  1R21
 -47457765.305    36923904.006       -3617.891          47.000  
 20  2 10 13 40 27.0000000  0  1R21
 -47457088.156    36927522.292       -3618.347          48.000  
 20  2 10 13 40 28.0000000  0  1R21
 -47456411.588    36931141.082       -3619.001          48.000  
 20  2 10 13 40 29.0000000  0  1R21
 -47455734.584    36934760.375       -3619.640          48.000  
 20  2 10 13 40 30.0000000  0  1R21
 -47455058.379    36938380.143       -3620.111          48.000  
 20  2 10 13 40 31.0000000  0  1R21
 -47454382.353    36942000.501       -3620.999          48.000  
 20  2 10 13 40 32.0000000  0  1R21
 -47453705.969    36945621.291       -3621.694          48.000  
 20  2 10 13 40 33.0000000  0  1R21
 -47453029.328    36949242.554       -3621.644          48.000  
 20  2 10 13 40 34.0000000  0  1R21
 -47452352.542    36952864.364       -3621.628          48.000  
 20  2 10 13 40 35.0000000  0  1R21
 -47451675.571    36956486.645       -3621.631          48.000  
 20  2 10 13 40 36.0000000  0  1R21
 -47450998.752    36960109.471       -3622.048          48.000  
 20  2 10 13 40 37.0000000  0  1R21
 -47450321.385    36963732.892       -3624.126          48.000  
